%              time   conductivity    temperature       pressure          pitch           roll        heading       latitude      longitude profile_number
%                 s            S/m              C           dbar            rad            rad            rad            deg            deg              -
1376305916.06701994     4.40161000    18.17590000     0.09349297    -0.12437526    -0.33358168     4.61640888            NaN            NaN            0.5
1376305917.21442008     4.40171000    18.17430000     0.09558562    -0.12463669    -0.32971838     4.62140508            NaN            NaN            0.5
1376305918.23270011     4.40135000    18.17300000     0.09822655    -0.12486690    -0.32631637     4.62580471            NaN            NaN            0.5
1376305919.37340999     4.40035000    18.17110000     0.09974013    -0.12512639    -0.32248175     4.63076383            NaN            NaN            0.5
1376305920.53391004     4.40109000    18.17360000     0.09899080    -0.12538908    -0.31859976     4.63578420            NaN            NaN            0.5
1376305921.66876006     4.40119000    18.17470000     0.09740580    -0.12564636    -0.31479767     4.64070123            NaN            NaN            0.5
1376305922.80071998     4.40121000    18.17160000     0.09577749    -0.12590338    -0.31099951     4.64561319            NaN            NaN            0.5
1376305923.94119000     4.40124000    18.17550000     0.09401361    -0.12616214    -0.30717565     4.65055838            NaN            NaN            0.5
1376305924.92523003     4.40134000    18.17880000     0.09357808    -0.12639363    -0.30375480     4.65498239            NaN            NaN            0.5
1376305925.53911996     4.40137000    18.17740000     0.09422887    -0.12662268    -0.30036990     4.65935990            NaN            NaN            0.5
1376305926.52744007     4.40129000    18.17530000     0.09583885    -0.12685202    -0.29698077     4.66374287            NaN            NaN            0.5
1376305927.53775001     4.40134000    18.17510000     0.09730972    -0.12708215    -0.29358001     4.66814090            NaN            NaN            0.5
1376305928.53079009     4.40133000    18.17450000     0.09767792    -0.12731148    -0.29019098     4.67252374            NaN            NaN            0.5
1376305929.54111004     4.40120000    18.17440000     0.09649473    -0.12754057    -0.28680555     4.67690195            NaN            NaN            0.5
1376305930.52957010     4.40100000    18.17440000     0.09390271    -0.12776966    -0.28342014     4.68128011            NaN            NaN            0.5
1376305931.53531003     4.40102000    18.17590000     0.09039831    -0.12800334    -0.27996685     4.68574607            NaN            NaN            0.5
1376305932.52559996     4.40116000    18.17720000     0.08677726    -0.12824604    -0.27638035     4.69038429            NaN            NaN            0.5
1376305933.53414989     4.40120000    18.17870000     0.08359935    -0.12848876    -0.27279338     4.69502313            NaN            NaN            0.5
1376305934.54108000     4.40123000    18.17600000     0.08201789    -0.12872699    -0.26927293     4.69957594            NaN            NaN            0.5
1376305935.56911993     4.40128000    18.17460000     0.08333865    -0.12897106    -0.26566617     4.70424037            NaN            NaN            0.5
1376305936.64261007     4.40134000    18.17440000     0.08749735    -0.12920962    -0.26214073     4.70879964            NaN            NaN            0.5
1376305938.52548003     4.40137000    18.17390000     0.09336074    -0.12947229    -0.25825901     4.71381966            NaN            NaN            0.5
1376305939.53098011     4.40149000    18.17460000     0.09355504    -0.12970134    -0.25487421     4.71819704            NaN            NaN            0.5
1376305940.54470992     4.40130000    18.17370000     0.09280083    -0.12993815    -0.25137476     4.72272269            NaN            NaN            0.5
1376305941.52933002     4.40131000    18.17380000     0.09302504    -0.13017594    -0.24786065     4.72726730            NaN            NaN            0.5
1376305942.53687000     4.40127000    18.17650000     0.09556251    -0.13041889    -0.24427039     4.73191039            NaN            NaN            0.5
1376305943.54262996     4.40124000    18.17450000     0.10006714    -0.13066176    -0.24068134     4.73655191            NaN            NaN            0.5
1376305944.53531003     4.40132000    18.17620000     0.10483144    -0.13090134    -0.23714093     4.74113053            NaN            NaN            0.5
1376305945.54421997     4.40135000    18.17740000     0.10850058    -0.13113984    -0.23361639     4.74568863            NaN            NaN            0.5
1376305946.53058004     4.40135000    18.17680000     0.11035459    -0.13138272    -0.23002714     4.75033042            NaN            NaN            0.5
1376305947.53815007     4.40142000    18.17670000     0.11087587    -0.13162673    -0.22642122     4.75499376            NaN            NaN            0.5
1376305948.53168011     4.40143000    18.17780000     0.11132682    -0.13186476    -0.22290372     4.75954275            NaN            NaN            0.5
1376305949.53872991     4.40134000    18.17730000     0.11307264    -0.13210748    -0.21931685     4.76418146            NaN            NaN            0.5
1376305950.54387999     4.40140000    18.17860000     0.11630218    -0.13235044    -0.21572650     4.76882467            NaN            NaN            0.5
1376305951.53214002     4.40139000    18.18010000     0.11971988    -0.13259031    -0.21218166     4.77340902            NaN            NaN            0.5
1376305952.58887005     4.40142000    18.17590000     0.12179139    -0.13282895    -0.20865517     4.77796964            NaN            NaN            0.5
1376305953.64019990     4.40140000    18.17740000     0.12140473    -0.13307283    -0.20505110     4.78263060            NaN            NaN            0.5
1376305955.54657006     4.40135000    18.18190000     0.11964084    -0.13333609    -0.20116069     4.78766185            NaN            NaN            0.5
1376305956.53659010     4.40116000    18.18480000     0.12193945    -0.13356829    -0.19772930     4.79209949            NaN            NaN            0.5
1376305957.54241991     4.40105000    18.18150000     0.12641770    -0.13379683    -0.19435208     4.79646706            NaN            NaN            0.5
1376305958.53040004     4.40107000    18.17710000     0.13012408    -0.13403977    -0.19076189     4.80111006            NaN            NaN            0.5
1376305959.53615999     4.40116000    18.17500000     0.13056571    -0.13427783    -0.18724403     4.80565953            NaN            NaN            0.5
1376305960.52686000     4.40114000    18.17340000     0.12711507    -0.13452176    -0.18363921     4.81032144            NaN            NaN            0.5
1376305961.53573990     4.40124000    18.17320000     0.12068618    -0.13476045    -0.18011192     4.81488310            NaN            NaN            0.5
1376305962.54543996     4.40129000    18.17510000     0.11304032    -0.13500339    -0.17652176     4.81952605            NaN            NaN            0.5
1376305963.53228998     4.40130000    18.17640000     0.10603423    -0.13524762    -0.17291266     4.82419352            NaN            NaN            0.5
1376305964.54580998     4.40135000    18.17760000     0.10047223    -0.13548611    -0.16938821     4.82875149            NaN            NaN            0.5
1376305965.53412008     4.40139000    18.17860000     0.09708103    -0.13572921    -0.16579578     4.83339740            NaN            NaN            0.5
1376305966.54095006     4.40140000    18.17940000     0.09539390    -0.13596710    -0.16228026     4.83794383            NaN            NaN            0.5
1376305967.53823996     4.40138000    18.17670000     0.09454120    -0.13620970    -0.15869530     4.84258006            NaN            NaN            0.5
1376305968.53225994     4.40139000    18.17890000     0.09365918    -0.13645240    -0.15510874     4.84721837            NaN            NaN            0.5
1376305969.60317993     4.40143000    18.17650000     0.09256914    -0.13669515    -0.15152133     4.85185777            NaN            NaN            0.5
1376305970.67266989     4.40124000    18.17560000     0.09169890    -0.13693447    -0.14798472     4.85643149            NaN            NaN            0.5
1376305972.54129004     4.40114000    18.18160000     0.09072716    -0.13719373    -0.14415348     4.86138622            NaN            NaN            0.5
1376305973.54580998     4.40121000    18.18840000     0.09026259    -0.13742268    -0.14077019     4.86576165            NaN            NaN            0.5
1376305974.53350997     4.40130000    18.18510000     0.08966596    -0.13765864    -0.13728312     4.87027130            NaN            NaN            0.5
1376305975.54355001     4.40134000    18.18870000     0.08887357    -0.13790154    -0.13369370     4.87491330            NaN            NaN            0.5
1376305976.53461003     4.40133000    18.19170000     0.08822199    -0.13814080    -0.13015789     4.87948597            NaN            NaN            0.5
1376305977.54247999     4.40137000    18.18890000     0.08824633    -0.13838382    -0.12656659     4.88413040            NaN            NaN            0.5
1376305978.52905011     4.40143000    18.18520000     0.08952707    -0.13862738    -0.12296731     4.88878516            NaN            NaN            0.5
1376305979.53930998     4.40139000    18.18270000     0.09237275    -0.13886730    -0.11942191     4.89337024            NaN            NaN            0.5
1376305980.53693008     4.40140000    18.18340000     0.09624654    -0.13911160    -0.11581166     4.89803918            NaN            NaN            0.5
1376305981.52692008     4.40146000    18.18590000     0.10048128    -0.13935019    -0.11228581     4.90259898            NaN            NaN            0.5
1376305982.53641009     4.40150000    18.18320000     0.10463579    -0.13959371    -0.10868713     4.90725295            NaN            NaN            0.5
1376305983.54688001     4.40154000    18.18090000     0.10783829    -0.12598912    -0.09457313     4.81286579            NaN            NaN            0.5
1376305984.54126000     4.40155000    18.17920000     0.10938591    -0.11000331    -0.07858732     4.70149719            NaN            NaN            0.5
1376305985.57107997     4.40154000    18.17970000     0.10920593    -0.09433047    -0.06291450     4.59230907            NaN            NaN            0.5
1376305986.62045002     4.40147000    18.17800000     0.10748171    -0.07838060    -0.04696463     4.48119085            NaN            NaN            0.5
1376305987.69022012     4.40149000    18.17650000     0.10468757    -0.06261904    -0.03120309     4.37138464            NaN            NaN            0.5
1376305989.53516006     4.40145000    18.18140000     0.09924042    -0.04598564    -0.01456970     4.25550451            NaN            NaN            0.5
1376305990.54108000     4.40153000    18.18040000     0.09653346    -0.04224164    -0.01188731     4.18970865            NaN            NaN            0.5
1376305991.52825999     4.40152000    18.17810000     0.09432294    -0.07208037    -0.04604464     4.23603733            NaN            NaN            0.5
1376305992.54150009     4.40134000    18.18210000     0.09269527    -0.10128485    -0.07947592     4.28138125            NaN            NaN            0.5
1376305993.53084993     4.40145000    18.18300000     0.09166916    -0.13092543    -0.11340642     4.32740227            NaN            NaN            0.5
1376305994.54059005     4.40144000    18.18260000     0.09072882    -0.15995800    -0.14664091     4.37247929            NaN            NaN            0.5
1376305995.52832007     4.40145000    18.18480000     0.08915061    -0.15445534    -0.15678924     4.33595722            NaN            NaN            0.5
1376305996.53888011     4.40152000    18.18300000     0.08651470    -0.13731970    -0.15869326     4.27274491            NaN            NaN            0.5
1376305997.54592991     4.40150000    18.17990000     0.08362291    -0.11978209    -0.16064196     4.20804971            NaN            NaN            0.5
1376305998.53420997     4.40154000    18.18080000     0.08160124    -0.10223645    -0.16259154     4.14332493            NaN            NaN            0.5
1376305999.54384995     4.40151000    18.18170000     0.08071851    -0.09118865    -0.16587505     4.11277089            NaN            NaN            0.5
1376306000.54046988     4.40161000    18.18530000     0.08088192    -0.10053104    -0.17366041     4.19101262            NaN            NaN            0.5
1376306001.54639006     4.40159000    18.18390000     0.08226332    -0.10970580    -0.18130608     4.26785041            NaN            NaN            0.5
1376306002.57574010     4.40162000    18.18350000     0.08522011    -0.11906312    -0.18910389     4.34621720            NaN            NaN            0.5
1376306003.64742994     4.40160000    18.18100000     0.08948222    -0.12848785    -0.19695787     4.42514847            NaN            NaN            0.5
1376306005.53537011     4.40169000    18.18000000     0.09495762    -0.12964634    -0.19865450     4.41808632            NaN            NaN            0.5
1376306006.54303002     4.40154000    18.18100000     0.09479673    -0.12817817    -0.19828735     4.38615749            NaN            NaN            0.5
1376306007.53091002     4.40171000    18.17780000     0.09324558    -0.12666639    -0.19790929     4.35328011            NaN            NaN            0.5
1376306008.54137993     4.40163000    18.17880000     0.09178627    -0.12513332    -0.19752592     4.31994002            NaN            NaN            0.5
1376306009.52910995     4.40163000    18.18050000     0.09152870    -0.12486442    -0.19920085     4.31613743            NaN            NaN            0.5
1376306010.53391004     4.40172000    18.18140000     0.09259913    -0.12913949    -0.20813956     4.41834815            NaN            NaN            0.5
1376306011.54247999     4.40162000    18.18080000     0.09432697    -0.13344940    -0.21715111     4.52139186            NaN            NaN            0.5
1376306012.53500009     4.40159000    18.18010000     0.09594334    -0.13765167    -0.22593759     4.62186194            NaN            NaN            0.5
1376306013.54099011     4.40159000    18.17840000     0.09720413    -0.14185346    -0.23472307     4.72232051            NaN            NaN            0.5
1376306014.52782989     4.40173000    18.17760000     0.09783959    -0.13417619    -0.24115798     4.72408190            NaN            NaN            0.5
1376306015.53375006     4.40179000    18.17800000     0.09763433    -0.12159590    -0.24649493     4.68405366            NaN            NaN            0.5
1376306016.52814007     4.40183000    18.17910000     0.09657066    -0.10882991    -0.25191067     4.64343451            NaN            NaN            0.5
1376306017.53808999     4.40186000    18.18010000     0.09490676    -0.09608070    -0.25731928     4.60286878            NaN            NaN            0.5
1376306018.54598999     4.40189000    18.17950000     0.09319819    -0.08769588    -0.25680286     4.56298075            NaN            NaN            0.5
1376306019.59259009     4.40192000    18.17960000     0.09186905    -0.10214377    -0.22361161     4.52119888            NaN            NaN            0.5
1376306020.66604996     4.40189000    18.18170000     0.09107495    -0.11661728    -0.19036152     4.47934294            NaN            NaN            0.5
1376306022.54904008     4.40189000    18.17900000     0.09106234    -0.13194859    -0.15514078     4.43500630            NaN            NaN            0.5
1376306023.53264999     4.40187000    18.17860000     0.09197127    -0.14568980    -0.12357300     4.39526808            NaN            NaN            0.5
1376306024.54538012     4.40189000    18.18060000     0.09302771    -0.14696087    -0.11778979     4.38589924    54.64773931     6.87674927            0.5
1376306025.52887011     4.40184000    18.18000000     0.09350253    -0.14226276    -0.12429495     4.39095992    54.64773828     6.87676066            0.5
1376306026.54025006     4.40186000    18.17960000     0.09321374    -0.13748677    -0.13090795     4.39610448    54.64773722     6.87677224            0.5
1376306027.52548003     4.40188000    18.17980000     0.09231358    -0.13269823    -0.13753834     4.40126257    54.64773617     6.87678384            0.5
1376306028.53908992     4.40174000    18.17930000     0.09093131    -0.12798498    -0.14406448     4.40633957    54.64773513     6.87679527            0.5
1376306029.52648997     4.40182000    18.17970000     0.08940861    -0.11848947    -0.13760195     4.39057307    54.64773381     6.87680142            0.5
1376306030.53368998     4.40188000    18.18000000     0.08817560    -0.10834990    -0.12934885     4.37194468    54.64773246     6.87680682            0.5
1376306031.54266000     4.40191000    18.18240000     0.08771477    -0.09835968    -0.12121731     4.35359066    54.64773113     6.87681215            0.5
1376306032.53757000     4.40210000    18.18210000     0.08775196    -0.08818745    -0.11293763     4.33490228    54.64772978     6.87681757            0.5
1376306033.52917004     4.40177000    18.18310000     0.08749597    -0.07823471    -0.10483660     4.31661713    54.64772845     6.87682288            0.5
1376306034.53745008     4.40179000    18.18280000     0.08687255    -0.06808993    -0.09657926     4.29797918    54.64772710     6.87682828            0.5
1376306035.56888008     4.40179000    18.18420000     0.08683745    -0.05808353    -0.08843454     4.27959543    54.64772577     6.87683362            0.5
1376306036.62438989     4.40187000    18.17980000     0.08818426    -0.04835404    -0.06975530     4.24627732    54.64772353     6.87684270              1
1376306037.73662996     4.40191000    18.17980000     0.09099117    -0.03919411    -0.03769555     4.19413595    54.64772017     6.87685649              1
1376306039.52993989     4.40166000    18.17860000     0.09761648    -0.02979672    -0.00480467     4.14064284    54.64771672     6.87687064              1
1376306040.54501009     4.40172000    18.18110000     0.10231496    -0.02110606     0.02561264     4.09117270    54.64771352     6.87688373              1
1376306041.53284001     4.40167000    18.18020000     0.10807587    -0.01181491     0.05813162     4.03828443    54.64771011     6.87689772              1
1376306042.54311991     4.40175000    18.18010000     0.11565077    -0.00558595     0.06865375     4.03507242    54.64770834     6.87690844              1
1376306043.52972007     4.40178000    18.18150000     0.12457012    -0.00250736     0.05454348     4.08869085    54.64770834     6.87691604              1
1376306044.54159999     4.40188000    18.17940000     0.13493906     0.00052252     0.04065650     4.14146076    54.64770834     6.87692351              1
1376306045.53063989     4.40192000    18.18000000     0.14616445     0.00360192     0.02654254     4.19509319    54.64770834     6.87693111              1
1376306046.53619003     4.40197000    18.18180000     0.15868939     0.00667291     0.01246716     4.24857904    54.64770834     6.87693868              1
1376306047.52582002     4.40200000    18.18150000     0.17230045     0.00970850    -0.00144601     4.30144850    54.64770834     6.87694617              1
1376306048.53918004     4.40207000    18.18080000     0.18860681     0.01278684    -0.01555511     4.35506243    54.64770834     6.87695377              1
1376306049.52941990     4.40214000    18.18130000     0.20857915    -0.01947035    -0.02212956     4.41134477    54.64770652     6.87696391              1
1376306050.53789997     4.40209000    18.18040000     0.23439912    -0.07520356    -0.02410590     4.47103185    54.64770351     6.87697599              1
1376306051.52694988     4.40217000    18.17970000     0.26567575    -0.13013288    -0.02605374     4.52985800    54.64770053     6.87698789              1
1376306052.58092999     4.40217000    18.17850000     0.30590582    -0.18576254    -0.02802641     4.58943418    54.64769752     6.87699995              1
1376306053.65001988     4.40225000    18.17760000     0.35467337    -0.24188434    -0.02832504     4.64830710    54.64769385     6.87700974              1
1376306055.53399992     4.40217000    18.17670000     0.46378730    -0.30277467    -0.01992638     4.70583788    54.64768663     6.87700814              1
1376306056.54495001     4.40200000    18.17580000     0.53573756    -0.35705434    -0.01243953     4.75712274    54.64768019     6.87700671              1
1376306057.53277993     4.40202000    18.17430000     0.61507078    -0.41169396    -0.00490304     4.80874767    54.64767372     6.87700527              1
1376306058.53287005     4.40212000    18.17460000     0.70437285    -0.46975834     0.00310583     4.86360843    54.64766683     6.87700374              1
1376306059.54062009     4.40215000    18.17490000     0.80357583    -0.49069177     0.00664364     4.89635809    54.64765990     6.87700306              1
1376306060.53597999     4.40224000    18.17500000     0.91066349    -0.49828395     0.00859038     4.92147015    54.64765284     6.87700269              1
1376306061.54459000     4.40224000    18.17430000     1.02834807    -0.50599564     0.01056776     4.94697754    54.64764567     6.87700231              1
1376306062.53081989     4.40228000    18.17300000     1.15208818    -0.51368669     0.01253985     4.97241662    54.64763851     6.87700194              1
1376306063.53885007     4.40196000    18.17240000     1.28684597    -0.52127598     0.01448585     4.99751915    54.64763362     6.87700036              1
1376306064.52905011     4.40171000    18.17260000     1.42640255    -0.52897013     0.01645874     5.02296847    54.64763469     6.87699540              1
1376306065.53799009     4.40164000    18.17290000     1.57430015    -0.53653006     0.01839721     5.04797390    54.64763574     6.87699052              1
1376306066.52621007     4.40158000    18.17320000     1.72254912    -0.54424018     0.02037419     5.07347606    54.64763681     6.87698554              1
1376306067.53354001     4.40150000    18.17260000     1.87520638    -0.55196893     0.02235594     5.09903986    54.64763788     6.87698056              1
1376306068.54629993     4.40144000    18.17320000     2.02928310    -0.55295075     0.02332591     5.10015752    54.64763142     6.87698372              1
1376306069.59430003     4.40151000    18.17340000     2.18909994    -0.55255760     0.02411234     5.09622600    54.64762323     6.87698867              1
1376306070.66570997     4.40146000    18.17160000     2.35345613    -0.55217154     0.02488460     5.09236538    54.64761517     6.87699352              1
1376306072.53238010     4.40106000    18.16930000     2.64638605    -0.55175253     0.02572276     5.08817529    54.64760644     6.87699879              1
1376306073.53818011     4.40120000    18.17080000     2.80896525    -0.56670260     0.02454299     5.06773521    54.64760161     6.87700049              1
1376306074.54407001     4.40124000    18.17120000     2.97527305    -0.60839971     0.02004625     5.01786222    54.64760145     6.87699728              1
1376306075.53100991     4.40119000    18.17070000     3.14308423    -0.64978033     0.01558364     4.96836776    54.64760128     6.87699408              1
1376306076.54028010     4.40119000    18.17050000     3.32112736    -0.69203039     0.01102726     4.91783339    54.64760112     6.87699082              1
1376306077.54660010     4.40104000    18.16860000     3.50636490    -0.73334087     0.00657221     4.86842283    54.64760095     6.87698764              1
1376306078.53375006     4.40011000    18.16600000     3.69545410    -0.77586877     0.00198587     4.81755615    54.64760079     6.87698435              1
1376306079.52914000     4.40007000    18.16570000     3.89245338    -0.81742991    -0.00249621     4.76784578    54.64760062     6.87698115              1
1376306080.54030991     4.40081000    18.16590000     4.09799405    -0.85957552    -0.00704132     4.71743633    54.64760046     6.87697789              1
1376306081.52648997     4.40077000    18.16600000     4.30292267    -0.90084777    -0.01149225     4.66807150    54.64760029     6.87697471              1
1376306082.53209996     4.40075000    18.16570000     4.51541544    -0.84542714    -0.00543146     4.74931677    54.64760110     6.87697022              1
1376306083.53911996     4.40071000    18.16550000     4.73037444    -0.77087916     0.00270886     4.85642547    54.64760211     6.87696545              1
1376306084.53021002     4.40065000    18.16490000     4.94298992    -0.69822106     0.01064280     4.96081883    54.64760309     6.87696080              1
1376306085.53853989     4.40069000    18.16440000     5.16014503    -0.62399245     0.01874824     5.06746867    54.64760409     6.87695605              1
1376306086.61001992     4.40050000    18.16290000     5.39213089    -0.60666842     0.01815958     5.11492280    54.64760513     6.87695204              1
1376306087.67892003     4.40055000    18.16360000     5.62514202    -0.61044649     0.01438151     5.14010993    54.64760618     6.87694833              1
1376306089.54532003     4.40065000    18.16460000     6.03716839    -0.61451428     0.01031371     5.16722856    54.64760730     6.87694435              1
1376306090.53048992     4.40070000    18.16580000     6.25822745    -0.61815661     0.00667138     5.19151074    54.64760831     6.87694078              1
1376306091.53607011     4.40066000    18.16620000     6.48713044    -0.62356184     0.00325105     5.24053107    54.64760985     6.87693717              1
1376306092.52652001     4.40055000    18.16360000     6.71624282    -0.63040827    -0.00017220     5.30856870    54.64761182     6.87693338              1
1376306093.53461003     4.40052000    18.16240000     6.95320121    -0.63709058    -0.00351339     5.37497544    54.64761374     6.87692968              1
1376306094.54247999     4.40065000    18.16420000     7.19341473    -0.64390765    -0.00692196     5.44272143    54.64761571     6.87692590              1
1376306095.52965999     4.40064000    18.16420000     7.43115707    -0.64489930    -0.00510210     5.48322107    54.64761792     6.87692182              1
1376306096.53900003     4.40093000    18.16690000     7.67613655    -0.63948541     0.00239416     5.49279900    54.64762034     6.87691752              1
1376306097.54558992     4.40108000    18.16900000     7.92207919    -0.63396342     0.01004009     5.50256817    54.64762281     6.87691313              1
1376306098.53380990     4.40118000    18.17060000     8.16482553    -0.62853600     0.01755508     5.51217004    54.64762524     6.87690882              1
1376306099.54254007     4.40088000    18.16760000     8.41336409    -0.62740360     0.02440636     5.52173471    54.64762759     6.87690474              1
1376306100.53344989     4.40085000    18.16690000     8.65777504    -0.63504510     0.02950067     5.53064930    54.64762962     6.87690140              1
1376306101.54254007     4.40093000    18.16680000     8.90693455    -0.64256036     0.03451082     5.53941663    54.64763161     6.87689810              1
1376306102.55037999     4.40048000    18.16660000     9.15670297    -0.65022827     0.03962273     5.54836203    54.64763365     6.87689474              1
1376306103.62179995     4.40095000    18.16720000     9.42451253    -0.65488056     0.04431493     5.55631744    54.64763576     6.87689129              1
1376306104.71657991     4.40093000    18.16620000     9.70186202    -0.64807717     0.04771667     5.56099515    54.64763834     6.87688720              1
1376306106.53723001     4.40098000    18.16630000    10.17127895    -0.64097324     0.05126869     5.56587950    54.64764102     6.87688294              1
1376306107.54473996     4.40089000    18.16520000    10.43332204    -0.63455931     0.05447570     5.57028944    54.64764345     6.87687908              1
1376306108.53815007     4.40095000    18.16580000    10.69192457    -0.62673837     0.05721655     5.57518061    54.64764607     6.87687495              1
1376306109.54540992     4.40116000    18.16820000    10.95362577    -0.60695223     0.05246790     5.58269901    54.64764931     6.87687015              1
1376306110.53232002     4.40068000    18.16820000    11.20872994    -0.58679295     0.04762969     5.59035920    54.64765261     6.87686525              1
1376306111.53695989     4.40119000    18.16840000    11.46603022    -0.56646247     0.04275039     5.59808445    54.64765593     6.87686031              1
1376306112.53024006     4.40121000    18.16840000    11.71686878    -0.54673196     0.03801508     5.60558171    54.64765916     6.87685552              1
1376306113.53781009     4.40083000    18.16930000    11.96654490    -0.52795838     0.03847892     5.59951909    54.64766187     6.87685123              1
1376306114.54343009     4.40135000    18.16940000    12.21011723    -0.51002974     0.04098061     5.58826247    54.64766430     6.87684726              1
1376306115.53280997     4.40137000    18.16960000    12.44396019    -0.49163137     0.04354783     5.57671094    54.64766680     6.87684317              1
1376306116.52712989     4.40140000    18.17010000    12.67333637    -0.47367507     0.04605337     5.56543696    54.64766924     6.87683919              1
1376306117.53711009     4.40142000    18.17000000    12.90115961    -0.47440495     0.04860661     5.55740738    54.64767156     6.87683532              1
1376306118.54506993     4.40145000    18.17000000    13.12440411    -0.48863431     0.05111768     5.55196655    54.64767371     6.87683164              1
1376306119.55286002     4.40143000    18.16940000    13.34495933    -0.50318796     0.05368599     5.54640172    54.64767591     6.87682788              1
1376306120.63034010     4.40130000    18.16870000    13.57979643    -0.51741664     0.05619695     5.54096115    54.64767807     6.87682420              1
1376306121.68207002     4.40087000    18.16450000    13.80992452    -0.52631068     0.05604926     5.53290328    54.64768040     6.87682003              1
1376306123.54498005     4.40104000    18.16880000    14.22237570    -0.52853603     0.05248884     5.52133160    54.64768301     6.87681515              1
1376306124.53427005     4.40146000    18.16980000    14.44371805    -0.53056937     0.04923561     5.51075833    54.64768539     6.87681070              1
1376306125.54387999     4.40157000    18.17160000    14.67077134    -0.53265936     0.04589175     5.49989048    54.64768784     6.87680611              1
1376306126.53253007     4.40160000    18.17160000    14.89358812    -0.52820878     0.04376954     5.49064173    54.64769030     6.87680143              1
1376306127.53597999     4.40134000    18.16780000    15.11918650    -0.50997555     0.04419358     5.48470643    54.64769282     6.87679648              1
1376306128.52933002     4.40054000    18.15930000    15.34074604    -0.49189571     0.04461406     5.47882107    54.64769532     6.87679156              1
1376306129.53888011     4.40032000    18.15630000    15.56293444    -0.47353871     0.04504099     5.47284549    54.64769786     6.87678658              1
1376306130.52765012     4.39997000    18.15290000    15.77681688    -0.46096654     0.04481144     5.46455477    54.64770020     6.87678186              1
1376306131.53542995     4.39954000    18.14940000    15.99080025    -0.47123933     0.04181522     5.44572000    54.64770198     6.87677777              1
1376306132.52939010     4.40000000    18.15310000    16.19834727    -0.48128470     0.03888533     5.42730221    54.64770372     6.87677378              1
1376306133.53906012     4.40064000    18.16050000    16.40638693    -0.49153705     0.03589507     5.40850494    54.64770549     6.87676970              1
1376306134.52707005     4.40045000    18.16090000    16.60790329    -0.50195326     0.03265765     5.38995300    54.64770725     6.87676560              1
1376306135.53760004     4.39972000    18.15410000    16.81233913    -0.51411152     0.02678807     5.37402192    54.64770887     6.87676131              1
1376306136.56716990     4.39976000    18.14910000    17.01936883    -0.52648287     0.02081562     5.35781163    54.64771052     6.87675695              1
1376306137.63834000     4.39752000    18.13450000    17.23450958    -0.53863154     0.01495067     5.34189311    54.64771214     6.87675266              1
1376306138.69034004     4.39720000    18.12020000    17.44704716    -0.55101709     0.00897137     5.32566420    54.64771379     6.87674828              1
1376306140.53180003     4.39664000    18.11410000    17.82312141    -0.53934224     0.01334738     5.31827782    54.64771550     6.87674348              1
1376306141.53970003     4.39697000    18.12260000    18.02929621    -0.52734202     0.01789924     5.31165582    54.64771711     6.87673893              1
1376306142.52837992     4.39846000    18.13740000    18.23010779    -0.51519941     0.02250511     5.30495524    54.64771875     6.87673432              1
1376306143.53796005     4.39773000    18.12860000    18.43271826    -0.50305680     0.02711099     5.29825466    54.64772038     6.87672971              1
1376306144.52902007     4.39696000    18.10500000    18.62869881    -0.49208795     0.03110117     5.30236315    54.64772211     6.87672509              1
1376306145.53833008     4.38990000    18.03950000    18.82509306    -0.48165262     0.03485781     5.30862425    54.64772380     6.87672059              1
1376306146.52666998     4.39084000    18.04700000    19.01409824    -0.47100939     0.03868929     5.31501009    54.64772553     6.87671600              1
1376306147.53607011     4.39072000    18.04160000    19.20341864    -0.46051369     0.04246766     5.32130741    54.64772723     6.87671147              1
1376306148.53081989     4.34571000    17.35010000    19.38577339    -0.46290937     0.04422618     5.33362762    54.64772886     6.87670749              1
1376306149.53035998     4.21991000    15.84230000    19.56428573    -0.47095243     0.04507281     5.34844429    54.64773044     6.87670380              1
1376306150.54204988     4.16112000    14.97710000    19.74031172    -0.47890881     0.04591031     5.36310128    54.64773200     6.87670016              1
1376306151.53079009     4.12357000    14.52610000    19.90884555    -0.48704640     0.04676689     5.37809210    54.64773360     6.87669643              1
1376306152.54696989     4.10382000    14.30680000    20.07993976    -0.49713436     0.04425401     5.38481822    54.64773516     6.87669280              1
1376306153.57631993     4.08871000    14.17830000    20.25255813    -0.50908160     0.03913373     5.38567144    54.64773676     6.87668910              1
1376306154.65030003     4.08067000    14.13210000    20.43315596    -0.52081414     0.03410547     5.38650932    54.64773833     6.87668547              1
1376306156.54018998     4.07086000    14.09840000    20.75341091    -0.53377780     0.02854958     5.38743513    54.64774006     6.87668146              1
1376306157.56549001     4.06716000    14.08760000    20.92800926    -0.53719687     0.02596890     5.38487650    54.64774159     6.87667782              1
1376306158.53264999     4.06351000    14.07390000    21.09285936    -0.53314167     0.02556340     5.37920052    54.64774312     6.87667410              1
1376306159.54329991     4.06030000    14.06520000    21.26499417    -0.52896033     0.02514529     5.37334798    54.64774469     6.87667027              1
1376306160.53638005     4.05754000    14.05710000    21.43383040    -0.52475897     0.02472518     5.36746743    54.64774626     6.87666643              1
1376306161.54592991     4.05495000    14.04830000    21.60511022    -0.51998848     0.02443460     5.36260029    54.64774778     6.87666270              1
1376306162.53250003     4.05275000    14.04070000    21.77215965    -0.51430309     0.02443460     5.36016176    54.64774909     6.87665945              1
1376306163.54199004     4.05063000    14.03420000    21.94285448    -0.50846178     0.02443460     5.35765636    54.64775043     6.87665610              1
1376306164.53494000     4.04880000    14.02940000    22.11069604    -0.50275631     0.02443460     5.35520923    54.64775174     6.87665284              1
1376306165.54465008     4.04709000    14.02410000    22.28145750    -0.49770365     0.02447018     5.35306251    54.64775310     6.87664945              1
1376306166.53225994     4.04555000    14.02060000    22.44870560    -0.50111664     0.02489682     5.35477120    54.64775474     6.87664541              1
1376306167.54114008     4.04399000    14.01720000    22.61997440    -0.50447835     0.02531704     5.35645422    54.64775636     6.87664143              1
1376306168.53534007     4.04259000    14.01340000    22.78930689    -0.50783111     0.02573615     5.35813276    54.64775798     6.87663746              1
1376306169.54407001     4.04123000    14.00990000    22.96175018    -0.51124476     0.02616287     5.35984179    54.64775962     6.87663342              1
1376306170.59552002     4.03998000    14.00780000    23.14229606    -0.51377231     0.02538281     5.35751686    54.64776126     6.87662930              1
1376306171.66637993     4.03876000    14.00610000    23.32729466    -0.51622998     0.02456361     5.35505732    54.64776288     6.87662524              1
1376306173.53454995     4.03670000    14.00280000    23.65339975    -0.51888235     0.02367950     5.35240292    54.64776463     6.87662085              1
1376306174.54181004     4.03563000    14.00230000    23.83087844    -0.52123079     0.02289670     5.35005268    54.64776618     6.87661696              1
1376306175.52652001     4.03468000    14.00120000    24.00538794    -0.51848961     0.02299507     5.35065461    54.64776767     6.87661326              1
1376306176.53930998     4.03375000    14.00050000    24.18566878    -0.51377281     0.02342387     5.35237200    54.64776918     6.87660951              1
1376306177.52798009     4.03295000    13.99960000    24.36194487    -0.50916891     0.02384242     5.35404828    54.64777066     6.87660586              1
1376306178.53729010     4.03212000    13.99690000    24.54169595    -0.50447348     0.02426928     5.35575789    54.64777216     6.87660213              1
1376306179.54650998     4.03127000    13.99300000    24.72097487    -0.50265500     0.02390965     5.35379422    54.64777375     6.87659810              1
1376306180.53711009     4.03035000    13.98910000    24.89654961    -0.50265500     0.02307241     5.34960631    54.64777536     6.87659398              1
1376306181.54662991     4.02958000    13.98660000    25.07534940    -0.50265500     0.02223475     5.34541636    54.64777696     6.87658986              1
1376306182.53589010     4.02891000    13.98430000    25.25076047    -0.50265500     0.02138015     5.34114163    54.64777860     6.87658566              1
1376306183.54470992     4.02817000    13.98250000    25.42994544    -0.50345874     0.02094400     5.33855819    54.64778014     6.87658169              1
1376306184.53638005     4.02746000    13.97950000    25.60615254    -0.50516686     0.02094400     5.33770425    54.64778163     6.87657781              1
1376306185.54488993     4.02669000    13.97630000    25.78503082    -0.50683897     0.02094400     5.33686831    54.64778310     6.87657401              1
1376306186.53362989     4.02617000    13.97490000    25.95987763    -0.50854749     0.02094400     5.33601418    54.64778460     6.87657013              1
1376306187.60479999     4.02551000    13.97090000    26.14903975    -0.50830179     0.02301944     5.33635931    54.64778614     6.87656618              1
1376306188.69928002     4.02479000    13.96710000    26.34297380    -0.50447829     0.02896708     5.33890782    54.64778781     6.87656195              1
1376306190.54376006     4.02310000    13.95670000    26.67229176    -0.50040061     0.03531012     5.34162575    54.64778960     6.87655743              1
1376306191.52988005     4.02241000    13.95260000    26.84839121    -0.49675151     0.04098649     5.34405802    54.64779120     6.87655338              1
1376306192.54236007     4.02188000    13.95070000    27.02821814    -0.49479987     0.04431298     5.34613371    54.64779279     6.87654935              1
1376306193.52895999     4.02140000    13.94950000    27.20232474    -0.49855388     0.03972473     5.34696778    54.64779434     6.87654546              1
1376306194.53799009     4.02126000    13.95190000    27.37964086    -0.50239187     0.03503386     5.34782050    54.64779593     6.87654148              1
1376306195.52658010     4.02102000    13.95290000    27.55344666    -0.50622978     0.03034307     5.34867321    54.64779751     6.87653750              1
1376306196.53900003     4.02050000    13.95090000    27.73231152    -0.50999691     0.02662102     5.35015192    54.64779905     6.87653365              1
1376306197.54483008     4.02028000    13.95140000    27.91106436    -0.51381433     0.03128675     5.35778772    54.64780046     6.87653033              1
1376306198.53017998     4.02010000    13.95370000    28.08679334    -0.51756414     0.03586987     5.36528830    54.64780185     6.87652707              1
1376306199.53982997     4.01980000    13.95430000    28.26700946    -0.52141318     0.04057425     5.37298735    54.64780327     6.87652372              1
1376306200.53386998     4.01953000    13.95360000    28.44452676    -0.52517203     0.04516841     5.38050601    54.64780467     6.87652045              1
1376306201.54257011     4.01905000    13.95050000    28.62522899    -0.52493798     0.04578469     5.38734866    54.64780691     6.87651547              1
1376306202.52951002     4.01872000    13.94920000    28.80332301    -0.52451156     0.04621118     5.39417376    54.64780920     6.87651039              1
1376306203.55884004     4.01884000    13.95600000    28.99109148    -0.52409115     0.04663166     5.40090274    54.64781146     6.87650538              1
1376306204.61525989     4.01855000    13.95630000    29.18624247    -0.52367251     0.04705038     5.40760344    54.64781370     6.87650040              1
1376306205.66726995     4.01817000    13.95310000    29.38270103    -0.51475795     0.04146559     5.41408467    54.64781548     6.87649663              1
1376306207.52807999     4.01777000    13.95530000    29.73105546    -0.50360485     0.03432756     5.42077658    54.64781721     6.87649298              1
1376306208.53890991     4.01741000    13.95260000    29.91757997    -0.49353595     0.02788343     5.42681797    54.64781878     6.87648968              1
1376306209.52767992     4.01711000    13.95070000    30.09684851    -0.48296046     0.02111507     5.43316331    54.64782043     6.87648622              1
1376306210.53497005     4.01688000    13.95010000    30.27626495    -0.48149658     0.01950475     5.44261291    54.64782227     6.87648259              1
1376306211.54558992     4.01665000    13.94870000    30.45345806    -0.48358526     0.01992254     5.45305631    54.64782415     6.87647898              1
1376306212.53890991     4.01654000    13.94830000    30.62519828    -0.48568322     0.02034217     5.46354609    54.64782603     6.87647536              1
1376306213.52756000     4.01644000    13.94900000    30.79371594    -0.48781296     0.02076817     5.47419480    54.64782795     6.87647167              1
1376306214.53687000     4.01622000    13.94790000    30.96286874    -0.49368142     0.02194187     5.48457754    54.64782982     6.87646823              1
1376306215.54309011     4.01605000    13.94600000    31.12805660    -0.50208550     0.02362266     5.49466281    54.64783166     6.87646499              1
1376306216.53362989     4.01580000    13.94410000    31.28681067    -0.51061914     0.02532936     5.50490357    54.64783352     6.87646170              1
1376306217.54395008     4.01555000    13.94370000    31.44432816    -0.51900225     0.02700596     5.51496369    54.64783534     6.87645846              1
1376306218.53365993     4.01529000    13.94240000    31.59381711    -0.50777581     0.02883467     5.51338664    54.64783764     6.87645407              1
1376306219.58362007     4.01514000    13.94270000    31.74620730    -0.47413361     0.03076812     5.49830521    54.64784038     6.87644850              1
1376306220.55661011     4.01494000    13.94130000    31.88003883    -0.43991054     0.03273494     5.48296338    54.64784318     6.87644284              1
1376306221.62951994     4.01477000    13.94040000    32.01654143    -0.40635477     0.03466342     5.46792070    54.64784591     6.87643728              1
1376306222.68151999     4.01457000    13.93950000    32.13527107    -0.37207908     0.03663327     5.45255528    54.64784871     6.87643161              1
1376306224.54906988     4.01418000    13.94030000    32.29292524    -0.19211912     0.03751347     5.35505196    54.64784833     6.87643374              1
1376306225.53568006     4.01461000    13.94380000    32.33994745    -0.02728788     0.03830404     5.26571766    54.64784796     6.87643574              1
1376306226.54522991     4.01414000    13.94050000    32.35630166     0.13912499     0.03910219     5.17552616    54.64784759     6.87643776            1.5
1376306227.53214002     4.01411000    13.93980000    32.33846137     0.31207421     0.03993170     5.08179212    54.64784719     6.87643986              2
1376306228.54229999     4.01409000    13.94130000    32.28432057     0.44003767     0.03762601     5.00511290    54.64784711     6.87643847              2
1376306229.53094006     4.01419000    13.94390000    32.19691117     0.55031603     0.03432178     4.93572555    54.64784714     6.87643594              2
1376306230.54052997     4.01416000    13.94480000    32.07485150     0.66278432     0.03095193     4.86496028    54.64784716     6.87643336              2
1376306231.52929997     4.01406000    13.94580000    31.92646462     0.77354934     0.02763311     4.79526671    54.64784719     6.87643083              2
1376306232.54376006     4.01390000    13.94630000    31.74785403     0.80866550     0.03027967     4.77065841    54.64784739     6.87642653              2
1376306233.53069997     4.01376000    13.94740000    31.55125077     0.78552553     0.03736761     4.78087324    54.64784772     6.87642102              2
1376306234.53973007     4.01356000    13.94790000    31.32936089     0.76192459     0.04459675     4.79129157    54.64784805     6.87641539              2
1376306235.54717994     4.01346000    13.94920000    31.08943305     0.73869719     0.05171147     4.80154500    54.64784838     6.87640986              2
1376306236.54114008     4.01350000    13.95210000    30.83798844     0.71507069     0.05894843     4.81197461    54.64784872     6.87640423              2
1376306237.64523005     4.01323000    13.95120000    30.54603538     0.69169946     0.06610721     4.82229153    54.64784905     6.87639866              2
1376306238.63271999     4.01290000    13.95070000    30.27740546     0.66804323     0.07335328     4.83273426    54.64784939     6.87639303              2
1376306239.71759009     4.01298000    13.95120000    29.97697545     0.64498476     0.08041626     4.84291312    54.64784971     6.87638753              2
1376306241.54218006     4.01263000    13.94860000    29.46148919     0.65281091     0.08682540     4.89722529    54.64785042     6.87638254              2
1376306242.52852988     4.01280000    13.95140000    29.17727384     0.72099062     0.09045627     5.02793774    54.64785172     6.87637969              2
1376306243.53646994     4.01273000    13.95350000    28.88213583     0.79165637     0.09421952     5.16341635    54.64785308     6.87637673              2
1376306244.52981997     4.01260000    13.95240000    28.58645619     0.86393242     0.09806854     5.30198220    54.64785446     6.87637371              2
1376306245.53778005     4.01273000    13.95370000    28.28211010     0.91577745     0.10250157     5.41147345    54.64785589     6.87637040              2
1376306246.54324007     4.01252000    13.95250000    27.97510556     0.86817049     0.11057769     5.38426975    54.64785777     6.87636518              2
1376306247.53009009     4.01208000    13.95290000    27.67128377     0.82028902     0.11870037     5.35690918    54.64785966     6.87635994              2
1376306248.54363990     4.01246000    13.95490000    27.35756774     0.77342985     0.12664963     5.33013279    54.64786152     6.87635480              2
1376306249.53268003     4.01260000    13.95790000    27.05113314     0.72577825     0.13416923     5.30461193    54.64786343     6.87634952              2
1376306250.54082990     4.01303000    13.96530000    26.74048094     0.68213917     0.12940858     5.31651354    54.64786579     6.87634367              2
1376306251.53021002     4.01346000    13.97330000    26.43960357     0.63734146     0.12452154     5.32873114    54.64786822     6.87633767              2
1376306252.54538012     4.01345000    13.97540000    26.13694911     0.59360594     0.11975038     5.34065905    54.64787059     6.87633180              2
1376306253.53500009     4.01321000    13.97200000    25.84865212     0.54901153     0.11488552     5.35282121    54.64787301     6.87632582              2
1376306254.58621001     4.01297000    13.96860000    25.54929955     0.51948459     0.10673849     5.37158376    54.64787596     6.87631947              2
1376306255.63596010     4.01313000    13.97000000    25.25603151     0.49543038     0.09685913     5.39391815    54.64787925     6.87631271              2
1376306256.71291995     4.01349000    13.97760000    24.95970093     0.47196985     0.08722360     5.41570133    54.64788246     6.87630613              2
1376306258.53409004     4.01385000    13.98940000    24.46977957     0.44746538     0.07715931     5.43845379    54.64788582     6.87629925              2
1376306259.54147005     4.01437000    13.99310000    24.20616522     0.44741867     0.07256637     5.45872296    54.64788869     6.87629386              2
1376306260.53469992     4.01453000    13.99620000    23.95099633     0.46338514     0.07130585     5.47847100    54.64789139     6.87628917              2
1376306261.54407001     4.01469000    13.99870000    23.69461085     0.47928538     0.07005055     5.49813712    54.64789408     6.87628449              2
1376306262.53271008     4.01482000    14.00140000    23.44418112     0.49550198     0.06877028     5.51819453    54.64789682     6.87627972              2
1376306263.54049993     4.01495000    14.00340000    23.18797145     0.50663655     0.06974521     5.52808194    54.64789956     6.87627492              2
1376306264.53139997     4.01509000    14.00560000    22.93450084     0.51173555     0.07356947     5.52553292    54.64790237     6.87626993              2
1376306265.53934002     4.01528000    14.00900000    22.67521137     0.51684778     0.07740364     5.52297730    54.64790518     6.87626494              2
1376306266.52829003     4.01542000    14.01130000    22.41972312     0.52186545     0.08116689     5.52046894    54.64790794     6.87626003              2
1376306267.53731990     4.01567000    14.01550000    22.15802329     0.52297379     0.08224210     5.51775379    54.64791082     6.87625489              2
1376306268.52785993     4.01621000    14.02320000    21.89985131     0.51590435     0.07766767     5.51484215    54.64791368     6.87624969              2
1376306269.53659010     4.01670000    14.03160000    21.63542886     0.50867002     0.07298655     5.51186259    54.64791660     6.87624436              2
1376306270.54691005     4.01740000    14.04240000    21.36926805     0.50156553     0.06838944     5.50893651    54.64791948     6.87623913              2
1376306271.57720995     4.01815000    14.05300000    21.09691520     0.49649369     0.06498705     5.52462562    54.64792265     6.87623418              2
1376306272.69497991     4.01865000    14.06140000    20.80044523     0.50068176     0.06708111     5.61718402    54.64792666     6.87623103              2
1376306274.54056001     4.02012000    14.08250000    20.30768393     0.50530765     0.06939408     5.71941836    54.64793110     6.87622756              2
1376306275.54735994     4.02196000    14.10720000    20.03692589     0.50932216     0.07140136     5.80814117    54.64793495     6.87622454              2
1376306276.54189992     4.02680000    14.16840000    19.76762696     0.51331949     0.07286382     5.88882012    54.64793882     6.87622140              2
1376306277.52936006     4.03968000    14.33400000    19.49799825     0.51630116     0.06604841     5.83600079    54.64794229     6.87621691              2
1376306278.53976011     4.09326000    14.97120000    19.21981281     0.51923084     0.05935186     5.78410260    54.64794571     6.87621250              2
1376306279.52947998     4.24456000    16.64420000    18.94562483     0.52221588     0.05252875     5.73122360    54.64794918     6.87620801              2
1376306280.54421997     4.31769000    17.69290000    18.66366455     0.52515702     0.04580599     5.67912224    54.64795261     6.87620359              2
1376306281.53079009     4.33702000    17.98070000    18.38969939     0.51376932     0.04178641     5.65106396    54.64795601     6.87619818              2
1376306282.53885007     4.34738000    18.05840000    18.11087048     0.50165474     0.03802666     5.62516364    54.64795935     6.87619280              2
1376306283.54886007     4.35322000    18.08340000    17.83340274     0.48922642     0.03416955     5.59859256    54.64796278     6.87618729              2
1376306284.54101992     4.35926000    18.10840000    17.56321943     0.47710768     0.03040851     5.57268336    54.64796611     6.87618191              2
1376306285.53066993     4.36390000    18.12810000    17.29622975     0.48850192     0.02657190     5.54487662    54.64796891     6.87617651              2
1376306286.53872991     4.36679000    18.13710000    17.02645569     0.50526361     0.02280051     5.51722018    54.64797153     6.87617121              2
1376306287.52767992     4.36781000    18.13600000    16.76299898     0.52242696     0.01893873     5.48890100    54.64797420     6.87616579              2
1376306288.60491991     4.36990000    18.14360000    16.47606247     0.53917989     0.01516930     5.46125902    54.64797681     6.87616049              2
1376306289.65639997     4.37194000    18.14730000    16.19509818     0.53810604     0.01279227     5.43368486    54.64797928     6.87615461              2
1376306291.53994989     4.37573000    18.15560000    15.69205221     0.52812225     0.01097708     5.40464194    54.64798182     6.87614812              2
1376306292.53125000     4.37772000    18.16400000    15.43065392     0.51915274     0.00934630     5.37854959    54.64798409     6.87614229              2
1376306293.54059005     4.37889000    18.16750000    15.16845659     0.51013841     0.00770738     5.35232687    54.64798638     6.87613643              2
1376306294.56682992     4.37948000    18.16910000    14.90606039     0.50270185     0.00973594     5.32532968    54.64798829     6.87613084              2
1376306295.53280997     4.38062000    18.16910000    14.66278568     0.49646830     0.01472297     5.29748478    54.64798991     6.87612543              2
1376306296.54324007     4.38150000    18.16960000    14.41227659     0.49021716     0.01972407     5.26956130    54.64799153     6.87612001              2
1376306297.53158998     4.38240000    18.17000000    14.17132641     0.48409805     0.02461953     5.24222764    54.64799312     6.87611469              2
1376306298.54033995     4.38330000    18.16970000    13.92931379     0.48315679     0.02778026     5.21666329    54.64799463     6.87610927              2
1376306299.54754996     4.38347000    18.17000000    13.69077157     0.49237676     0.02736115     5.19612805    54.64799590     6.87610394              2
1376306300.54095006     4.38403000    18.17000000    13.45756244     0.50177752     0.02693382     5.17519012    54.64799720     6.87609851              2
1376306301.52866006     4.38466000    18.17080000    13.22703736     0.51097988     0.02651551     5.15469412    54.64799846     6.87609320              2
1376306302.53888011     4.38510000    18.17100000    12.99227536     0.51708216     0.02627139     5.13852467    54.64799982     6.87608752              2
1376306303.54503989     4.38610000    18.17110000    12.75930092     0.51121972     0.02669015     5.13978185    54.64800139     6.87608105              2
1376306304.53830004     4.38681000    18.17170000    12.53010241     0.50524359     0.02711702     5.14106341    54.64800299     6.87607446              2
1376306305.61121011     4.38739000    18.17250000    12.28332649     0.49938416     0.02753556     5.14231995    54.64800456     6.87606799              2
1376306306.66318011     4.38809000    18.17250000    12.04195772     0.49430632     0.02853062     5.14519225    54.64800616     6.87606148              2
1376306308.52892995     4.38875000    18.16620000    11.61647022     0.49876616     0.03566646     5.16525935    54.64800785     6.87605580              2
1376306309.53641009     4.38910000    18.16630000    11.38946768     0.50278450     0.04209590     5.18333994    54.64800937     6.87605068              2
1376306310.54580998     4.38977000    18.16830000    11.16421750     0.50701145     0.04885912     5.20235915    54.64801097     6.87604530              2
1376306311.53445005     4.39065000    18.17150000    10.94524288     0.51119708     0.05555622     5.22119243    54.64801256     6.87603997              2
1376306312.54662991     4.39114000    18.17220000    10.72243116     0.51015279     0.06117274     5.21301484    54.64801387     6.87603515              2
1376306313.53500009     4.39155000    18.17360000    10.50639129     0.50889723     0.06661348     5.20380918    54.64801513     6.87603047              2
1376306314.54455996     4.39194000    18.17420000    10.28766070     0.50761673     0.07216232     5.19442061    54.64801642     6.87602570              2
1376306315.53139997     4.39226000    18.17290000    10.07569459     0.50635779     0.07761771     5.18519016    54.64801769     6.87602101              2
1376306316.54577994     4.39241000    18.17310000     9.85884916     0.50579086     0.07358094     5.18433827    54.64801920     6.87601545              2
1376306317.53133988     4.39260000    18.17350000     9.64780354     0.50536490     0.06761634     5.18519020    54.64802076     6.87600971              2
1376306318.54022002     4.39296000    18.17300000     9.43025035     0.50494724     0.06176799     5.18602552    54.64802229     6.87600409              2
1376306319.54724002     4.39337000    18.17380000     9.21134108     0.50452006     0.05578640     5.18687987    54.64802386     6.87599834              2
1376306320.53830004     4.39307000    18.17440000     8.99479879     0.50380736     0.05143782     5.20697763    54.64802565     6.87599299              2
1376306321.54433990     4.39373000    18.17370000     8.77449432     0.50295480     0.04760056     5.23554451    54.64802758     6.87598762              2
1376306322.61554003     4.39398000    18.17320000     8.53928869     0.50210071     0.04375643     5.26416259    54.64802952     6.87598224              2
1376306323.68698001     4.39424000    18.17360000     8.30268572     0.50126084     0.03997628     5.29230437    54.64803143     6.87597695              2
